city_id,City,Cloudiness,Country,Date,Humidity,Lat,Long,Max Temp,Wind Speed
0,San-Pédro,100,CI,1667515067,89,4.7485,-6.6363,77.81,4.72
1,Spearfish,100,US,1667515067,53,44.4908,-103.8594,35.1,12.66
2,Namatanai,37,PG,1667515068,67,-3.6667,152.4333,85.28,1.23
3,Puerto Ayora,80,EC,1667515068,78,-0.7393,-90.3518,75.16,12.33
4,Punta Arenas,40,CL,1667515069,63,-53.15,-70.9167,62.71,23.02
5,Cuamba,8,MZ,1667515069,63,-14.8031,36.5372,73.06,3.49
6,Marang,86,MY,1667515069,91,5.2056,103.2059,78.71,4.23
7,Caaguazú,1,PY,1667515070,77,-25.45,-56.0167,59.83,1.79
8,Melfort,98,CA,1667514939,74,52.8667,-104.6177,23.13,4.61
9,Margate,44,GB,1667515070,95,51.3813,1.3862,48.31,6.69
10,Arraial do Cabo,75,BR,1667515071,68,-22.9661,-42.0278,67.86,2.3
11,Izumo,75,JP,1667515071,88,35.3667,132.7667,55.35,5.75
12,Manzhouli,85,CN,1667515071,82,49.6,117.4333,16.63,8.81
13,Saint Paul Harbor,0,US,1667515072,45,57.79,-152.4072,38.71,27.63
14,Hilo,100,US,1667515047,91,19.7297,-155.09,76.62,4.61
15,Atuona,14,PF,1667515072,80,-9.8,-139.0333,77.38,12.64
16,Salta,0,AR,1667515073,16,-24.7859,-65.4117,73.99,12.66
17,Sabla,97,NG,1667515073,23,12.7525,4.7077,79.79,9.24
18,Hobart,6,AU,1667515073,60,-42.8794,147.3294,58.26,1.01
19,Mataura,87,NZ,1667515074,87,-46.1927,168.8643,50.92,9.35
20,Kailua,40,US,1667514814,67,21.4022,-157.7394,87.78,10.36
21,Bonavista,85,CA,1667515074,58,48.6499,-53.1147,37.42,25.64
22,Norman Wells,100,CA,1667515075,85,65.282,-126.8329,6.84,12.66
23,Ixtapa,0,MX,1667515075,69,20.7,-105.2,83.23,8.05
24,Poum,3,NC,1667515075,74,-20.2333,164.0167,78.96,5.88
25,Sitka,40,US,1667515076,65,57.0531,-135.33,44.49,11.5
26,Jamestown,0,US,1667515076,59,42.097,-79.2353,64.04,9.22
27,Krasnogorskoye,87,RU,1667515076,76,52.2953,86.1979,33.01,3.65
28,Garoowe,15,SO,1667515077,71,8.4054,48.4845,74.1,10.49
29,Asău,35,RO,1667515077,90,46.4333,26.4,38.32,2.08
30,Saskylakh,100,RU,1667515078,96,71.9167,114.0833,13.32,5.3
31,Monte Alegre,87,BR,1667515078,66,-2.0078,-54.0692,81.32,3.15
32,Hermanus,100,ZA,1667515078,95,-34.4187,19.2345,65.8,14.29
33,Bluff,70,NZ,1667515079,68,-46.6,168.3333,52.88,34.05
34,Honiara,28,SB,1667515079,69,-9.4333,159.95,85.46,3.56
35,Luwuk,100,ID,1667515079,83,-0.9516,122.7875,80.62,0.58
36,Piro,23,IN,1667515080,62,25.3333,84.4167,65.98,3.87
37,Sistranda,100,NO,1667515080,74,63.7256,8.834,51.76,6.53
38,Hong Kong,89,HK,1667514877,94,22.2855,114.1577,73.26,5.01
39,Tiksi,91,RU,1667515081,99,71.6872,128.8694,-3.48,6.98
40,Coahuayana Viejo,13,MX,1667515081,73,18.7333,-103.6833,83.93,5.1
41,Cape Town,20,ZA,1667515081,85,-33.9258,18.4232,68.41,17.0
42,Castro,51,BR,1667515082,86,-24.7911,-50.0119,49.78,6.53
43,Esperance,88,AU,1667515082,59,-33.8667,121.9,65.35,20.54
44,Cairns,75,AU,1667515083,67,-16.9167,145.7667,86.11,10.36
45,Tilichiki,100,RU,1667515083,97,60.4667,166.1,15.73,8.37
46,Ust'-Kut,100,RU,1667515084,98,56.7938,105.7672,25.07,1.59
47,Cocorit,12,MX,1667515084,40,27.5833,-109.9667,82.74,16.04
48,Kapaa,20,US,1667515084,75,22.0752,-159.319,82.72,13.8
49,Boissevain,100,CA,1667515085,45,49.2306,-100.0559,31.64,12.5
50,Okhotsk,100,RU,1667515085,92,59.3833,143.3,25.72,11.34
51,Busselton,5,AU,1667515086,79,-33.65,115.3333,60.93,8.99
52,Albany,0,US,1667515046,60,42.6001,-73.9662,59.58,3.91
53,Kaitangata,65,NZ,1667515086,71,-46.2817,169.8464,52.14,12.28
54,Finschhafen,87,PG,1667515086,67,-6.6024,147.8681,85.55,8.12
55,Sur,0,OM,1667515087,49,22.5667,59.5289,77.25,10.07
56,Fort Nelson,75,CA,1667515087,79,58.8053,-122.7002,13.59,0.0
57,Severo-Kuril'sk,100,RU,1667515088,93,50.6789,156.125,44.58,14.25
58,San Jose,20,US,1667514847,41,37.3394,-121.895,63.79,12.66
59,Faanui,97,PF,1667515088,82,-16.4833,-151.75,76.89,19.71
60,Punto Fijo,96,VE,1667515089,73,11.6956,-70.1996,83.43,15.28
61,Waikuku,32,NZ,1667515089,46,-43.3,172.6833,70.09,16.22
62,Sabang,100,ID,1667515089,88,5.8933,95.3214,76.68,7.47
63,Broome,0,US,1667515090,59,42.2506,-75.833,59.77,1.01
64,Oranjemund,9,NA,1667515091,93,-28.55,16.4333,59.31,6.71
65,Rikitea,100,PF,1667515091,68,-23.1203,-134.9692,69.98,14.58
66,Cherskiy,8,RU,1667515091,94,68.75,161.3,-20.78,5.19
67,Ambon City,40,ID,1667515092,88,-3.6954,128.1814,77.14,5.75
68,Avarua,75,CK,1667515092,65,-21.2078,-159.775,77.05,11.5
69,Acapulco de Juárez,0,MX,1667514851,74,16.8634,-99.8901,84.02,13.8
70,Chui,1,UY,1667515093,78,-33.6971,-53.4616,54.93,7.96
71,Kargat,90,RU,1667515093,70,55.1956,80.2811,30.42,7.23
72,Vestmannaeyjar,0,IS,1667515094,76,63.4427,-20.2734,40.55,19.48
73,Ponta do Sol,78,PT,1667515094,88,32.6667,-17.1,70.72,1.57
74,Ikom,66,NG,1667515094,96,5.9667,8.7063,73.58,2.48
75,Huicungo,29,PE,1667515095,71,-7.2833,-76.8,70.79,0.54
76,Cabo San Lucas,0,MX,1667515095,61,22.8909,-109.9124,84.51,6.91
77,Sinnamary,56,GF,1667515096,88,5.3833,-52.95,78.49,6.98
78,Iralaya,100,HN,1667515096,85,15.0,-83.2333,79.65,9.89
79,Port Lincoln,10,AU,1667515096,64,-34.7333,135.8667,58.53,10.04
80,Maceió,20,BR,1667514963,88,-9.6658,-35.7353,76.44,9.22
81,Ushuaia,20,AR,1667515097,48,-54.8,-68.3,62.26,6.91
82,Shelburne,44,CA,1667514953,76,44.0787,-80.2041,56.59,9.64
83,Hithadhoo,63,MV,1667515098,76,-0.6,73.0833,80.82,13.09
84,Necochea,0,AR,1667515098,53,-38.5473,-58.7368,58.24,18.45
85,Kaduy,69,RU,1667515099,90,59.2,37.15,27.36,2.68
86,Grand Gaube,34,MU,1667515099,73,-20.0064,57.6608,73.38,8.99
87,La Sarre,100,CA,1667515100,75,48.8002,-79.1996,54.72,14.34
88,São Filipe,100,CV,1667515100,51,14.8961,-24.4956,81.84,7.67
89,Jardim,4,BR,1667515100,61,-21.4803,-56.1381,64.65,7.18
90,Pemangkat,100,ID,1667515101,90,1.1667,108.9667,77.13,5.39
91,Lebu,66,CL,1667515101,87,-37.6167,-73.65,55.2,4.41
92,Armizonskoye,100,RU,1667515101,93,55.9461,67.6736,32.43,7.43
93,Santo Antônio do Içá,23,BR,1667515102,72,-3.1022,-67.9397,71.22,1.9
94,Östersund,75,SE,1667515102,100,63.1792,14.6357,45.61,12.66
95,Biabou,40,VC,1667515103,89,13.2,-61.1333,78.8,4.61
96,Longyearbyen,20,SJ,1667515103,86,78.2186,15.6401,31.84,6.91
97,Talnakh,100,RU,1667515104,95,69.4865,88.3972,16.21,8.99
98,Herat Province,100,AF,1667515104,44,34.5,62.0,62.49,6.71
99,Lüderitz,0,NA,1667515104,91,-26.6481,15.1594,58.41,2.35
100,Denia,92,ES,1667515105,56,38.8408,0.1057,72.75,8.01
101,Awjilah,96,LY,1667515105,61,29.1081,21.2869,64.45,8.57
102,Katsuura,100,JP,1667515106,57,35.1333,140.3,70.0,21.32
103,Indāpur,0,IN,1667515106,57,18.3,73.25,69.42,3.74
104,Barry,40,GB,1667514961,92,51.4067,-3.2694,47.64,6.91
105,Varadero,11,CU,1667515106,79,23.1536,-81.2514,83.16,13.73
106,Pangai,75,TO,1667515040,83,-19.8,-174.35,78.91,12.66
107,Pochutla,34,MX,1667515107,79,15.7432,-96.4661,85.82,4.68
108,Gao,71,ML,1667515108,17,16.6362,1.637,77.85,10.36
109,Bredasdorp,100,ZA,1667515108,96,-34.5322,20.0403,63.72,13.18
110,Mahon,75,ES,1667515024,73,39.8885,4.2658,70.36,6.91
111,George Town,20,MY,1667515109,96,5.4112,100.3354,77.9,4.61
112,Coquimbo,0,CL,1667515109,72,-29.9533,-71.3436,58.73,13.8
113,La Brea,75,HN,1667515110,83,15.8,-85.9667,81.91,6.91
114,La Santisima Trinidad,9,BO,1667515110,36,-14.8333,-64.9,78.78,9.22
115,Sheridan,40,US,1667514814,74,44.8333,-106.9173,34.02,4.61
116,Gewanē,3,ET,1667515111,45,10.1664,40.6453,78.44,2.82
117,Bathsheba,40,BB,1667515111,78,13.2167,-59.5167,83.01,13.8
118,Yellowknife,100,CA,1667515111,85,62.456,-114.3525,14.52,19.57
119,Yumen,0,CN,1667515112,56,40.2833,97.2,30.83,14.14
120,Pemberton,100,CA,1667515112,94,50.3164,-122.8027,37.09,5.08
121,Kavieng,88,PG,1667515113,69,-2.5744,150.7967,83.95,1.68
122,East London,96,ZA,1667515113,83,-33.0153,27.9116,67.5,16.55
123,Opuwo,1,NA,1667515113,23,-18.0607,13.84,68.04,6.2
124,Waingapu,99,ID,1667515114,70,-9.6567,120.2641,82.24,2.26
125,Codrington,95,AU,1667515114,77,-38.2667,141.9667,55.8,3.71
126,Havøysund,99,NO,1667515115,90,70.9963,24.6622,43.03,11.56
127,Santa Marta,75,CO,1667514957,87,11.2408,-74.199,84.25,9.22
128,Puerto Ayacucho,95,VE,1667515115,84,5.6639,-67.6236,73.78,4.38
129,Saint-Leu,67,RE,1667515115,100,-21.15,55.2833,75.96,4.03
130,Lavrentiya,37,RU,1667515116,74,65.5833,-171.0,14.9,6.53
131,Srednekolymsk,66,RU,1667515116,93,67.45,153.6833,-20.52,3.4
132,Esmeraldas,100,BR,1667515117,84,-19.7625,-44.3139,61.11,5.48
133,Srandakan,99,ID,1667515117,89,-7.9386,110.2506,78.35,6.76
134,Mar del Plata,0,AR,1667515104,81,-38.0023,-57.5575,55.42,15.99
135,Pisco,0,PE,1667515113,68,-13.7,-76.2167,66.25,16.11
136,Caravelas,100,BR,1667515118,89,-17.7125,-39.2481,69.19,19.26
137,Kabalo,99,CD,1667515118,97,-6.05,26.9167,68.11,3.78
138,Atasū,87,KZ,1667515119,73,48.6814,71.6433,35.1,8.66
139,Fortuna,75,US,1667515119,60,40.5982,-124.1573,55.92,10.36
140,Flinders,37,AU,1667515119,75,-34.5833,150.8552,64.38,5.01
141,Kudahuvadhoo,90,MV,1667515120,78,2.6708,72.8944,81.09,13.4
142,Pevek,39,RU,1667515120,98,69.7008,170.3133,-15.45,4.34
143,Arman',100,RU,1667515121,92,59.7,150.1667,26.02,10.45
144,Kigoma,100,TZ,1667515121,74,-4.8769,29.6267,75.56,13.06
145,Tsaratanana,42,MG,1667515121,83,-16.7833,47.65,73.69,2.77
146,Suriāpet,3,IN,1667515122,94,17.15,79.6167,71.19,2.44
147,Hofn,100,IS,1667515122,72,64.2539,-15.2082,44.51,14.0
148,Uray,84,RU,1667515122,87,60.1247,64.7758,30.78,3.71
149,Oparino,100,RU,1667515123,96,59.8518,48.2783,30.45,4.92
150,King City,23,US,1667515123,31,36.2127,-121.126,62.89,12.17
151,Dingle,78,PH,1667515124,91,10.9995,122.6711,78.91,6.15
152,Stromness,99,GB,1667515124,78,58.965,-3.296,48.87,10.0
153,Daru,100,PG,1667515124,73,-9.0763,143.2092,84.31,8.61
154,Oranjestad,40,AW,1667515125,86,12.524,-70.027,84.15,17.27
155,Limbe,92,CM,1667515125,84,4.0242,9.2149,77.65,4.63
156,Petrov Val,100,RU,1667515126,85,50.1434,45.2096,34.7,8.21
157,Bambous Virieux,20,MU,1667515126,88,-20.3428,57.7575,73.22,3.44
158,Paracuru,41,BR,1667515126,81,-3.41,-39.0306,80.11,11.86
159,Torbay,40,CA,1667514938,61,47.6666,-52.7314,38.75,21.85
160,Beyneu,46,KZ,1667515127,84,45.3167,55.2,39.92,9.22
161,Portland,100,US,1667514983,84,45.5234,-122.6762,49.89,5.99
162,Haines Junction,100,CA,1667515127,74,60.7522,-137.5108,30.15,1.14
163,Chokurdakh,100,RU,1667515128,95,70.6333,147.9167,-12.35,3.47
164,Rawson,0,AR,1667514984,25,-43.3002,-65.1023,73.0,24.81
165,Luanda,98,AO,1667515128,85,-8.8368,13.2343,76.89,7.99
166,Al Bardīyah,0,LY,1667515129,74,31.7561,25.0865,67.1,6.93
167,Perehonivka,94,UA,1667515129,78,48.5355,30.5192,48.78,8.21
168,Vila,81,PT,1667515130,92,42.0304,-8.1588,41.88,3.31
169,Karwar,23,IN,1667515130,73,14.8,74.1333,77.59,7.11
170,Magdagachi,72,RU,1667515130,88,53.45,125.8,10.87,3.24
171,Esim,88,GH,1667515131,85,4.8699,-2.2405,78.75,6.22
172,New Norfolk,14,AU,1667515131,47,-42.7826,147.0587,57.92,3.11
173,Jiménez,5,MX,1667515132,12,28.3333,-105.4,84.0,21.52
174,Alyangula,43,AU,1667515132,43,-13.8483,136.4192,86.29,16.37
175,Kiama,41,AU,1667515132,75,-34.6833,150.8667,64.58,1.99
176,Resistencia,0,AR,1667515072,32,-27.4606,-58.9839,76.98,5.75
177,Buala,90,SB,1667515133,73,-8.145,159.5921,84.11,6.78
178,Souillac,20,MU,1667515133,88,-20.5167,57.5167,71.98,3.44
179,Portales,66,US,1667515092,24,34.1862,-103.3344,75.02,13.0
180,Taltal,22,CL,1667515134,70,-25.4,-70.4833,63.07,5.08
181,Yulara,0,AU,1667515134,28,-25.2406,130.9889,67.84,17.9
182,Port Alfred,94,ZA,1667515134,83,-33.5906,26.891,67.96,20.09
183,Båtsfjord,100,NO,1667515135,93,70.6345,29.7185,40.93,23.02
184,Athabasca,64,CA,1667515135,76,54.7169,-113.2854,23.41,10.18
185,Arecibo,78,PR,1667514890,84,18.4724,-66.7157,81.27,1.99
186,Airai,99,TL,1667515136,80,-8.9266,125.4092,67.19,2.1
187,São Gabriel da Cachoeira,100,BR,1667515136,85,-0.1303,-67.0892,70.88,1.88
188,Vardø,100,NO,1667515136,87,70.3705,31.1107,39.18,34.52
189,Touros,30,BR,1667515137,79,-5.1989,-35.4608,78.49,13.27
190,Ballitoville,100,ZA,1667515137,88,-29.539,31.2144,70.16,2.3
191,Grindavik,0,IS,1667515138,87,63.8424,-22.4338,36.07,9.22
192,Mâncio Lima,0,BR,1667515138,39,-7.6142,-72.8958,82.47,3.44
193,Harper,100,LR,1667515138,88,4.375,-7.7169,77.79,6.82
194,Muros,97,ES,1667515139,93,42.7762,-9.0603,53.17,4.5
195,Aberdeen,0,GB,1667515107,93,57.1437,-2.0981,44.49,2.3
196,Clearwater,100,US,1667515034,72,27.9659,-82.8001,83.01,13.0
197,Qaanaaq,34,GL,1667515139,54,77.484,-69.3632,7.41,8.66
198,Ruteng,89,ID,1667515140,86,-8.6136,120.4721,68.0,1.7
199,Olafsvik,54,IS,1667515140,88,64.8945,-23.7142,40.51,12.41
200,Tautira,94,PF,1667515141,82,-17.7333,-149.15,75.42,19.55
201,Mitsamiouli,0,KM,1667515141,78,-11.3847,43.2844,76.17,9.78
202,Aklavik,100,CA,1667515141,79,68.2191,-135.0107,10.4,9.22
203,Anadyr,0,RU,1667515142,78,64.75,177.4833,5.5,6.71
204,Hamilton,0,US,1667515054,59,39.1834,-84.5333,70.75,5.75
205,Lypova Dolyna,99,UA,1667515142,90,50.5643,33.7979,41.83,5.26
206,Saint Anthony,100,US,1667515143,75,45.0205,-93.218,64.65,14.97
207,Great Falls,0,US,1667515143,49,47.5002,-111.3008,39.65,23.02
208,Nishihara,75,JP,1667515143,92,26.1842,127.7558,74.48,20.71
209,Mékhé,100,SN,1667515144,30,15.1097,-16.6218,82.42,6.85
210,Carnarvon,0,AU,1667515144,77,-24.8667,113.6333,69.82,17.11
211,Saint-Philippe,88,RE,1667515145,80,-21.3585,55.7679,71.19,10.07
212,Yola,100,NG,1667514846,36,9.2,12.4833,79.27,1.52
213,Vaini,40,TO,1667515145,74,-21.2,-175.2,82.56,11.5
214,Charters Towers,2,AU,1667515145,47,-20.1,146.2667,76.98,14.7
215,Llata,84,PE,1667515146,90,-9.4167,-76.7833,53.87,5.23
216,Ekibastuz,65,KZ,1667515146,53,51.6667,75.3667,35.55,10.22
217,Tessalit,0,ML,1667515147,18,20.1986,1.0114,73.18,11.68
218,Chennai,75,IN,1667514937,94,13.0878,80.2785,75.18,4.61
219,Aykhal,100,RU,1667515147,94,66.0,111.5,5.68,23.87
220,Byron Bay,3,AU,1667514845,56,-28.65,153.6167,66.7,11.9
221,Barrow,100,US,1667515148,85,71.2906,-156.7887,10.42,10.36
222,Tuktoyaktuk,100,CA,1667515148,79,69.4541,-133.0374,12.2,10.36
223,Nelson,5,NZ,1667515149,50,-41.2833,173.2833,64.26,8.28
224,Cidreira,0,BR,1667515149,75,-30.1811,-50.2056,59.94,8.39
225,Provideniya,98,RU,1667515150,69,64.3833,-173.3,16.72,5.21
226,Cap-aux-Meules,40,CA,1667515150,70,47.3821,-61.8597,44.65,10.36
227,Mayo,0,US,1667515150,79,38.8876,-76.5119,66.67,0.0
228,Bosaso,1,SO,1667515151,79,11.2842,49.1816,78.06,3.18
229,Bethel,0,US,1667515151,66,41.3712,-73.414,59.83,1.01
230,Laguna,0,US,1667515152,33,38.421,-121.4238,64.69,12.66
231,Tasiilaq,100,GL,1667515152,95,65.6145,-37.6368,32.16,11.45
232,Manggar,100,ID,1667515153,81,-2.8833,108.2667,79.83,3.67
233,Ribeira Grande,75,PT,1667514683,94,38.5167,-28.7,68.77,11.01
234,Jalu,97,LY,1667515153,52,29.0331,21.5482,64.85,8.79
235,Cervo,58,ES,1667515154,74,43.6702,-7.4101,60.96,14.7
236,Lagoa,1,PT,1667515154,88,39.05,-27.9833,67.03,10.8
237,Mount Isa,0,AU,1667515154,21,-20.7333,139.5,71.37,14.97
238,Akureyri,100,IS,1667515155,93,65.6835,-18.0878,37.33,0.0
239,Ulaangom,100,MN,1667515155,87,49.9811,92.0667,23.72,4.03
240,Zhoucheng,57,CN,1667515156,68,35.9122,116.3117,42.42,3.04
241,Dikson,100,RU,1667515156,87,73.5069,80.5464,24.01,5.21
242,Ciudad Bolivar,100,VE,1667515156,87,8.1222,-63.5497,77.18,6.06
243,San Patricio,31,US,1667515157,74,28.017,-97.5169,84.06,15.84
244,Iqaluit,75,CA,1667515157,78,63.7506,-68.5145,6.53,6.91
245,Wewak,100,PG,1667515157,73,-3.5534,143.6268,83.95,0.83
246,Bengkulu,100,ID,1667515158,89,-3.8004,102.2655,75.92,5.32
247,Sakakah,0,SA,1667515158,46,29.9697,40.2064,63.97,1.74
248,Sept-Îles,75,CA,1667515159,79,50.2001,-66.3821,35.6,6.91
249,Andenes,75,NO,1667515159,81,69.3143,16.1194,44.92,9.22
250,Ha Tinh,99,VN,1667515063,70,18.3333,105.9,69.4,3.87
251,Nikolskoye,83,RU,1667515160,90,59.7035,30.7861,33.69,2.77
252,Rio Grande,0,BR,1667515160,74,-32.035,-52.0986,62.71,12.53
253,La Ronge,100,CA,1667515160,80,55.1001,-105.2842,23.25,10.36
254,Kalmunai,100,LK,1667515161,86,7.4167,81.8167,77.56,2.73
255,San Miguel de Tucumán,0,AR,1667515161,14,-26.8241,-65.2226,80.6,17.27
256,Dubbo,2,AU,1667515162,77,-32.25,148.6167,57.33,6.91
257,Udachny,100,RU,1667515162,84,66.4167,112.4,8.46,17.96
258,Dalianwan,0,CN,1667515162,80,39.0286,121.695,30.24,4.47
259,Orël-Izumrud,100,RU,1667515163,87,43.4583,39.9244,53.62,7.0
260,Ancud,14,CL,1667515163,87,-41.8697,-73.8203,55.44,6.35
261,Lipin Bor,91,RU,1667515163,94,60.2622,37.9763,27.25,5.7
262,Ahipara,56,NZ,1667515164,65,-35.1667,173.1667,66.27,7.58
263,San Quintín,10,MX,1667515164,47,30.4833,-115.95,62.55,21.99
264,Singaraja,86,ID,1667515165,82,-8.112,115.0882,80.83,2.42
265,Stantsionno-Oyashinskiy,100,RU,1667515165,82,55.4664,83.8245,30.6,4.65
266,Joshīmath,1,IN,1667515165,31,30.5667,79.5667,52.81,7.83
267,São João da Barra,100,BR,1667515166,68,-21.6403,-41.0511,68.09,12.5
268,Taoudenni,43,ML,1667515166,15,22.6783,-3.9836,76.21,10.33
269,Florø,75,NO,1667515166,76,61.5996,5.0328,51.96,10.36
270,Severobaykal'sk,81,RU,1667515167,77,55.65,109.3167,24.58,6.51
271,Bubaque,88,GW,1667515167,70,11.2833,-15.8333,83.66,8.77
272,Jumla,0,NP,1667515168,49,29.2747,82.1838,43.74,5.01
273,Isangel,40,VU,1667515068,70,-19.55,169.2667,84.31,5.75
274,Severomuysk,100,RU,1667515168,96,56.1481,113.4267,8.02,4.76
275,Aktobe,75,KZ,1667515168,93,50.2797,57.2072,28.49,13.42
276,Saint-Pierre,0,RE,1667515169,68,-21.3393,55.4781,76.57,5.75
277,Zhigansk,53,RU,1667515169,99,66.7697,123.3711,-11.06,6.4
278,Klaksvík,100,FO,1667515170,90,62.2266,-6.589,45.52,24.09
279,Copiapó,0,CL,1667515170,40,-27.3667,-70.3333,56.89,4.74
280,Nanortalik,100,GL,1667515170,75,60.1432,-45.2371,39.97,33.89
281,Saldanha,8,ZA,1667515171,95,-33.0117,17.9442,60.85,7.29
282,La Providencia,2,MX,1667515171,33,28.7167,-111.5833,79.21,14.23
283,Cap Malheureux,31,MU,1667515172,73,-19.9842,57.6142,73.47,7.0
284,Vanavara,79,RU,1667515172,98,60.34,102.2797,3.88,1.05
285,Cayenne,0,GF,1667514948,94,4.9333,-52.3333,77.04,0.0
286,Waipawa,0,NZ,1667515172,47,-41.4122,175.5153,63.45,13.02
287,Marmari,5,GR,1667515173,43,38.0484,24.3204,70.74,1.01
288,Nyurba,48,RU,1667515173,97,63.2842,118.3319,-2.56,4.79
289,Peniche,100,PT,1667515174,98,39.3558,-9.3811,62.29,14.45
290,Forsytheganj,99,BY,1667515174,97,52.6333,29.7333,42.71,3.11
291,Alofi,75,NU,1667515175,83,-19.0595,-169.9187,78.69,17.27
292,Lata,81,PT,1667515175,95,40.1629,-8.3327,57.92,0.65
293,Xining,18,CN,1667515122,83,36.6167,101.7667,33.87,0.51
294,Gigmoto,85,PH,1667515175,84,13.7796,124.39,82.02,7.43
295,College,100,US,1667515176,83,64.8569,-147.8028,14.58,9.22
296,Hay River,75,CA,1667515176,79,60.8156,-115.7999,15.78,13.8
297,Paamiut,100,GL,1667515177,89,61.994,-49.6678,35.91,6.44
298,Enumclaw,100,US,1667515177,91,47.2043,-121.9915,42.57,1.01
299,Port Elizabeth,20,ZA,1667515177,94,-33.918,25.5701,67.1,10.36
300,Meaford,60,CA,1667515178,78,44.6001,-80.583,61.09,10.54
301,Beian,0,NO,1667515178,66,63.6559,9.5683,52.0,12.66
302,Jinka,42,ET,1667515178,65,5.65,36.65,64.76,1.99
303,Chicama,46,PE,1667515179,72,-7.8447,-79.1469,61.34,6.85
304,Krasnosel'kup,13,RU,1667515179,89,65.7,82.4667,1.45,6.38
305,Gouré,16,NE,1667515180,20,13.9835,10.2704,75.96,10.71
306,Kokkinochoma,14,GR,1667515180,85,40.9333,24.3,63.52,7.0
307,Beringovskiy,100,RU,1667515180,93,63.05,179.3167,15.1,10.47
308,Avera,0,US,1667515181,55,33.194,-82.5271,71.65,7.34
309,Port Keats,72,AU,1667515181,64,-14.25,129.55,83.8,9.55
310,Uri,100,IN,1667515182,51,34.0833,74.0333,57.54,5.48
311,Crotone,0,IT,1667515182,55,39.0851,17.1178,65.35,7.0
312,Saint-Augustin,100,CA,1667515182,36,51.226,-58.6502,34.92,9.98
313,Canmore,78,CA,1667515111,43,51.0834,-115.3521,30.81,11.5
314,Itaueira,100,BR,1667515183,90,-7.6033,-43.0256,74.5,0.98
315,Litovko,50,RU,1667515183,63,49.2361,135.1742,23.67,7.74
316,Bhīnmāl,0,IN,1667515184,36,25.0,72.25,75.22,7.02
317,Kumul,38,CN,1667515184,38,42.8,93.45,41.04,1.57
318,Three Hills,62,CA,1667515046,88,51.7001,-113.2686,17.67,7.0
319,Senanga,51,ZM,1667515185,79,-16.1167,23.2667,69.51,3.85
320,Teberda,95,RU,1667515185,86,43.4456,41.7448,42.35,6.98
321,Kungurtug,45,RU,1667515185,93,50.5994,97.5228,10.51,2.08
322,Qasigiannguit,88,GL,1667515186,69,68.8193,-51.1922,28.65,6.58
323,Arroyos y Esteros,1,PY,1667515186,73,-25.0667,-57.1,76.75,4.99
324,Santoña,6,ES,1667515187,73,43.4439,-3.4576,58.93,14.45
325,Hamada,69,JP,1667515187,70,34.8833,132.0833,57.81,12.71
326,Omboué,100,GA,1667515187,89,-1.5746,9.2618,75.56,2.53
327,Saskatoon,100,CA,1667514937,85,52.1168,-106.6345,21.18,10.36
328,Lompoc,0,US,1667515188,52,34.6391,-120.4579,65.79,23.02
329,Mount Gambier,98,AU,1667514942,75,-37.8333,140.7667,54.07,2.39
330,Atar,0,MR,1667515189,11,20.5169,-13.0499,77.43,6.4
331,Mendoza,0,AR,1667515141,7,-32.8908,-68.8272,81.93,12.66
332,Evensk,100,RU,1667515190,69,61.95,159.2333,10.38,12.15
333,Richards Bay,100,ZA,1667515190,92,-28.783,32.0377,70.83,9.13
334,Lichuan,95,CN,1667514957,83,30.3,108.85,48.51,2.46
335,Zeya,34,RU,1667515191,91,53.75,127.2667,9.55,2.53
336,Puerto Nariño,58,CO,1667515191,77,-3.7703,-70.3831,69.19,1.72
337,Tallahassee,0,US,1667514950,55,30.4383,-84.2807,79.0,1.01
338,Gorontalo,99,ID,1667515071,90,0.5412,123.0595,78.76,1.86
339,Bakchar,71,RU,1667515192,91,57.0186,82.0711,24.57,3.74
340,Bairnsdale,19,AU,1667515192,71,-37.8333,147.6167,60.06,1.99
341,Terrace Bay,33,CA,1667515193,93,48.7834,-87.1,44.69,6.53
342,Blyth,0,GB,1667515193,93,55.1271,-1.5086,43.09,2.3
343,Stephenville,75,US,1667515194,57,32.2207,-98.2023,81.39,19.57
344,Kidal,0,ML,1667515194,18,18.4411,1.4078,75.79,10.74
345,Makkah al Mukarramah,1,SA,1667514924,51,21.4267,39.8261,74.59,5.84
346,Santa Helena de Goiás,100,BR,1667515195,70,-17.8136,-50.5969,66.6,10.85
347,Mahébourg,20,MU,1667515134,88,-20.4081,57.7,73.26,3.44
348,Vanimo,86,PG,1667515195,85,-2.6741,141.3028,81.37,2.19
349,San Policarpo,39,PH,1667515195,75,12.1791,125.5072,82.87,10.25
350,Jiexiu,85,CN,1667514946,46,37.0244,111.9125,44.33,1.36
351,Leningradskiy,100,RU,1667515196,94,69.3833,178.4167,0.61,9.19
352,Kampot,100,KH,1667515196,93,10.6167,104.1833,78.85,5.91
353,Clarence Town,58,AU,1667515197,73,-32.5833,151.7833,63.95,4.43
354,Killybegs,38,IE,1667515197,80,54.6333,-8.45,48.02,6.13
355,Naze,63,JP,1667515197,71,28.3667,129.4833,68.92,14.18
356,Hinton,100,CA,1667515198,49,53.4001,-117.5857,30.33,9.37
357,Butaritari,72,KI,1667515198,71,3.0707,172.7902,80.26,13.33
358,Celestún,100,MX,1667515199,86,20.8667,-90.4,79.45,9.71
359,Hervey Bay,30,AU,1667515199,65,-25.2986,152.8535,68.52,14.76
360,Nara,91,JP,1667515199,73,34.6851,135.8049,57.49,2.42
361,Mondolfo,87,IT,1667515200,78,43.7494,13.0979,63.14,1.01
362,Kieta,79,PG,1667515200,66,-6.2167,155.6333,85.35,2.59
363,Wanning,100,CN,1667515200,92,18.8003,110.3967,69.78,2.15
364,Tonantins,38,BR,1667515201,74,-2.8731,-67.8022,71.56,1.99
365,Sotnikovo,89,RU,1667515201,85,51.8845,107.4791,8.69,2.24
366,Najrān,10,SA,1667515202,33,17.4924,44.1277,66.85,0.2
367,Jinxiang,100,CN,1667515202,84,27.4327,120.6062,64.13,17.18
368,Nelson Bay,81,AU,1667515203,81,-32.7167,152.15,64.09,4.0
369,Warmbad,0,NA,1667515203,49,-28.45,18.7333,62.49,7.7
370,Arlit,1,NE,1667515203,21,18.7369,7.3853,74.84,10.22
371,Taywarah,93,AF,1667515204,45,33.35,64.4167,43.14,5.17
372,Vila Franca do Campo,69,PT,1667515204,97,37.7167,-25.4333,70.2,8.01
373,Buta,100,CD,1667515205,99,2.7858,24.73,68.14,2.13
374,Skibbereen,60,IE,1667515206,84,51.55,-9.2667,50.11,10.69
375,Husavik,100,IS,1667515206,99,66.0449,-17.3389,39.29,10.4
376,Karratha,0,AU,1667515207,29,-20.7377,116.8463,78.71,10.11
377,Tooele,40,US,1667515207,61,40.5308,-112.2983,41.65,12.66
378,Lincoln,75,US,1667515092,58,40.8,-96.667,75.11,14.97
379,Belyy Yar,100,RU,1667515207,100,53.6039,91.3903,26.49,2.24
380,Ji’an,100,CN,1667515208,88,27.1172,114.9793,60.94,6.71
381,Lerik,7,AZ,1667515208,64,38.7726,48.4128,38.12,3.74
382,Chara,94,RU,1667515209,89,56.9064,118.2631,13.55,2.24
383,Chapais,100,CA,1667515209,69,49.7834,-74.8492,55.18,13.51
384,Ilulissat,75,GL,1667515210,46,69.2167,-51.1,28.42,16.11
385,Kruisfontein,48,ZA,1667515210,90,-34.0033,24.7314,64.89,10.09
386,Zheleznodorozhnyy,91,RU,1667515210,95,55.7503,38.0042,30.38,4.16
387,Sivaki,34,RU,1667515211,91,52.6333,126.75,10.06,5.61
388,Bianzhuang,50,CN,1667515212,68,34.8486,118.0447,40.91,7.4
389,Ketchikan,100,US,1667514921,93,55.3422,-131.6461,43.27,11.5
390,Hambantota,100,LK,1667515213,83,6.1241,81.1185,77.31,7.78
391,Wasilla,100,US,1667515180,91,61.5814,-149.4394,28.78,11.5
392,Mahajanga,40,MG,1667515213,83,-15.7167,46.3167,78.82,10.36
393,Gomel,75,BY,1667515214,85,52.4345,30.9754,44.58,6.71
394,Sittwe,0,MM,1667515214,84,20.15,92.9,75.45,8.61
395,Dwārka,0,IN,1667515159,68,22.2394,68.9678,79.54,7.38
396,Leshukonskoye,98,RU,1667515215,97,64.8989,45.7622,18.25,1.39
397,Muisne,100,EC,1667515215,82,0.6,-80.0333,73.98,12.17
398,Henties Bay,0,NA,1667515216,87,-22.116,14.2845,57.94,5.75
399,Kerteminde,100,DK,1667515216,76,55.449,10.6577,51.85,23.13
400,Mombetsu,88,JP,1667515216,74,44.3525,143.3525,39.43,15.75
401,Korla,60,CN,1667515153,44,41.7597,86.1469,45.45,8.48
402,Subiaco,100,IT,1667515217,92,41.9254,13.0941,61.2,6.53
403,Pilar,64,BR,1667515217,82,-9.5972,-35.9567,75.13,8.05
404,Coruripe,60,BR,1667515218,82,-10.1256,-36.1756,77.65,13.4
405,Verkhnetulomskiy,100,RU,1667515218,90,68.6073,31.7962,26.73,6.6
406,Santa Cruz de la Sierra,3,BO,1667515218,22,-17.8,-63.1667,80.65,12.66
407,Wenling,100,CN,1667515219,80,28.3669,121.36,60.21,14.0
408,Ucluelet,100,CA,1667515127,92,48.9329,-125.5528,45.09,3.0
409,Trairi,23,BR,1667515213,80,-3.2778,-39.2689,79.02,9.31
410,Māngrol,0,IN,1667515220,57,21.1167,70.1167,77.68,7.56
411,Inhambane,0,MZ,1667515220,78,-23.865,35.3833,73.38,6.91
412,Fraserburgh,2,GB,1667515220,76,57.6874,-2.0184,42.12,14.29
413,Benguela,94,AO,1667515221,80,-12.5763,13.4055,77.16,5.88
414,Buenaventura,97,CO,1667515202,96,3.8801,-77.0312,74.52,2.98
415,Kahului,40,US,1667514936,59,20.8947,-156.47,89.62,24.16
416,Port Macquarie,64,AU,1667515222,70,-31.4333,152.9167,64.89,6.78
417,Sidi Ali,100,DZ,1667515222,74,36.0998,0.4206,65.86,10.09
418,Araouane,0,ML,1667515222,14,18.9048,-3.5265,75.6,9.1
419,Nouadhibou,0,MR,1667515223,60,20.931,-17.0347,73.38,10.36
420,Champasak,7,LA,1667515223,89,14.75,106.0,64.4,1.72
421,La Ligua,96,CL,1667515224,79,-32.4524,-71.2311,58.75,4.59
422,Caucayá,100,CO,1667515224,82,-0.1934,-74.7819,65.95,1.74
423,Tianpeng,100,CN,1667515224,88,30.9866,103.9393,55.87,1.74
424,Ormara,1,PK,1667515225,69,25.2088,64.6357,78.22,10.76
425,Kulhudhuffushi,88,MV,1667515225,75,6.6221,73.07,81.25,8.46
426,Georgiyevka,100,KZ,1667515225,100,43.0369,74.7114,42.84,6.71
427,Gimli,100,CA,1667515226,56,50.6336,-96.9907,37.42,10.36
428,Oslo,100,NO,1667515218,1,59.9127,10.7461,50.7,8.41
429,Mossamedes,35,AO,1667515226,85,-15.1961,12.1522,66.99,4.56
430,Diffa,76,NE,1667515227,24,13.3154,12.6113,76.53,9.55
431,Japura,100,ID,1667515227,98,-0.3167,102.35,72.68,1.48
432,Tura,1,IN,1667515228,93,25.5198,90.2201,63.57,3.83
433,Bandarbeyla,4,SO,1667515228,75,9.4942,50.8122,77.11,1.92
434,Zhezkazgan,100,KZ,1667515228,46,47.8043,67.7144,43.14,13.76
435,Vila Velha,100,BR,1667515229,85,-20.3297,-40.2925,64.94,14.97
436,Niscemi,1,IT,1667515229,90,37.1486,14.3913,61.66,3.36
437,Uyuni,11,BO,1667515229,11,-20.4597,-66.825,54.01,4.18
438,Okha,63,RU,1667515230,61,53.5739,142.9478,31.53,7.18
439,Madona,100,LV,1667515230,97,56.8533,26.217,45.12,2.62
440,Zhangaözen,82,KZ,1667515231,58,43.3,52.8,46.98,12.84
441,Hays,58,US,1667515169,61,30.0502,-98.0336,82.96,8.99
442,Fairbanks,100,US,1667514933,84,64.8378,-147.7164,14.59,9.22
443,Qujing,60,CN,1667515231,93,25.4833,103.7833,49.08,4.03
444,Orcopampa,72,PE,1667515232,16,-15.2661,-72.3417,51.57,9.86
445,Uthal,2,PK,1667515232,68,25.8072,66.6219,76.15,3.6
446,Adra,71,ES,1667515232,51,36.7496,-3.0206,65.37,5.86
447,Maturin,88,VE,1667515233,100,9.75,-63.1767,75.04,3.44
448,Virginia Beach,75,US,1667515233,92,36.8529,-75.978,66.24,10.36
449,Nantucket,0,US,1667515160,87,41.2835,-70.0995,58.01,6.91
450,Baoqing,31,CN,1667515234,43,46.3317,132.2111,24.55,8.66
451,Geraldton,75,AU,1667515234,94,-28.7667,114.6,63.01,5.75
452,Smithers,100,CA,1667515055,75,54.7804,-127.1743,34.12,2.3
453,Kuznechnoye,25,RU,1667515235,87,61.12,29.8686,33.01,3.91
454,Artigas,0,UY,1667515235,64,-30.4,-56.4667,61.21,10.29
455,Oistins,40,BB,1667515235,78,13.0667,-59.5333,82.49,13.8
456,Thompson,100,CA,1667515236,86,55.7435,-97.8558,19.56,13.8
457,Narsaq,100,GL,1667515236,58,60.9167,-46.05,41.22,17.07
458,Sakaiminato,20,JP,1667515236,94,35.55,133.2333,55.38,10.36
459,Seydi,43,TM,1667515237,83,39.4816,62.9137,54.63,4.94
460,Gamba,100,GA,1667515237,89,-2.65,10.0,73.51,2.44
461,Avdon,40,RU,1667515238,93,54.6667,55.7167,22.32,4.47
462,Buchanan,100,LR,1667515238,88,5.8808,-10.0467,78.31,6.35
463,Clyde River,100,CA,1667515238,93,70.4692,-68.5914,21.43,10.36
464,Baoro,97,CF,1667515239,77,5.6667,15.9667,67.6,0.98
465,Khovd,89,MN,1667515239,77,48.0056,91.6419,25.45,0.87
466,Mnogovershinnyy,100,RU,1667515239,98,53.9353,139.9242,28.83,17.87
467,Changli,0,CN,1667515240,28,39.7042,119.1506,34.81,5.93
468,Guerrero Negro,13,MX,1667515033,56,27.9769,-114.0611,67.6,22.97
469,Newton,0,US,1667515240,61,42.337,-71.2092,60.51,5.75
470,Loreto,0,MX,1667515241,27,22.2667,-101.9667,76.77,7.07
471,Shizunai-furukawachō,25,JP,1667515241,69,42.3339,142.3669,41.95,10.78
472,Dutlwe,100,BW,1667515241,57,-23.9833,23.9,70.81,11.54
473,Sokyryany,42,UA,1667515242,82,48.4475,27.4168,42.64,1.39
474,West Wendover,0,US,1667515242,31,40.7391,-114.0733,42.01,14.97
475,Hirara,75,JP,1667515242,94,24.8,125.2833,73.67,18.41
476,Samarai,51,PG,1667515243,73,-10.6167,150.6667,83.39,6.55
477,Khatanga,99,RU,1667515243,97,71.9667,102.5,-0.51,6.67
478,Majene,94,ID,1667515244,79,-3.5403,118.9707,80.51,3.13
479,Partāpur,0,IN,1667515244,40,23.6,74.1667,72.66,1.99
480,Vikhorevka,100,RU,1667515244,91,56.1201,101.1636,26.19,2.1
481,Pontes e Lacerda,29,BR,1667515245,47,-15.2261,-59.3353,66.72,4.32
482,Upernavik,96,GL,1667515245,52,72.7868,-56.1549,23.05,8.63
483,Kuching,40,MY,1667515131,100,1.55,110.3333,73.62,3.44
484,Kiunga,94,PG,1667515246,72,-6.1219,141.2906,82.85,0.96
485,Phang Nga,74,TH,1667515246,82,8.4509,98.5298,77.04,3.22
486,Bud,6,US,1667515247,61,39.447,-86.1758,69.78,6.8
487,Mirny,10,RU,1667515247,84,62.5353,113.9611,1.24,13.0
488,Formosa,0,AR,1667515247,43,-26.1775,-58.1781,73.38,5.75
489,Valparaíso,75,CL,1667515115,90,-33.0393,-71.6273,60.48,9.22
490,Constitución,36,CL,1667515248,85,-35.3333,-72.4167,53.11,3.51
491,Wheeling,75,US,1667514960,54,42.1392,-87.929,70.2,13.8
492,Hammerfest,0,NO,1667515249,81,70.6634,23.6821,41.45,6.91
493,Auki,57,SB,1667515249,69,-8.7676,160.7034,84.67,0.74
494,Sarkand,51,KZ,1667515249,44,45.41,79.9186,44.76,4.12
495,Moose Factory,0,CA,1667515250,59,51.2585,-80.6094,62.6,13.8
496,Sarakhs,99,IR,1667515250,68,36.5449,61.1577,60.26,8.43
497,Lianzhou,100,CN,1667515250,91,24.7811,112.3825,60.8,3.51
498,Durango,0,MX,1667515211,19,24.8333,-104.8333,73.78,15.66
499,General Roca,15,AR,1667515251,11,-39.0333,-67.5833,85.62,19.91
500,Hurghada,0,EG,1667515251,46,27.2574,33.8129,71.64,8.05
501,‘Ewa Beach,20,US,1667515252,59,21.3156,-158.0072,87.75,17.27
502,Agadir,41,MA,1667515252,75,30.4202,-9.5982,64.85,5.84
503,Bambanglipuro,97,ID,1667515252,89,-7.95,110.2833,78.15,6.8
504,Boca do Acre,30,BR,1667515253,42,-8.7522,-67.3978,74.89,2.75
505,Vega de Alatorre,98,MX,1667515253,78,20.0333,-96.6333,78.51,3.83
506,Aquiraz,12,BR,1667515254,81,-3.9014,-38.3911,80.69,12.77
507,Chenzhou,100,CN,1667515254,92,25.8,113.0333,59.5,2.91
508,Ust-Nera,91,RU,1667515254,97,64.5667,143.2,-10.19,1.99
509,Kodīnar,0,IN,1667515255,47,20.7903,70.7031,76.66,8.3
510,Taboc,50,PH,1667515255,74,8.8783,124.7975,81.54,3.02
511,Havelock,100,US,1667515256,82,34.8791,-76.9013,71.6,9.22
512,Hualmay,6,PE,1667515256,77,-11.0964,-77.6139,64.99,8.25
513,Saint George,75,US,1667515028,56,37.1041,-113.5841,51.26,8.05
514,Bilma,92,NE,1667515257,22,18.6853,12.9164,69.75,6.42
515,Cowra,4,AU,1667515257,72,-33.8333,148.6833,59.05,2.15
516,São Lourenço,97,BR,1667515257,88,-22.1164,-45.0544,53.85,5.03
517,Perovo,6,UA,1667515258,72,44.9333,34.0667,44.6,4.88
518,Nguruka,96,TZ,1667515258,54,-5.1092,31.0419,73.29,2.57
519,Amahai,100,ID,1667515259,76,-3.3333,128.9167,82.09,2.15
520,Morón,0,AR,1667515259,54,-34.6534,-58.6198,69.69,11.79
521,Manono,98,CD,1667515259,93,-7.3,27.4167,68.4,1.41
522,Biak,100,ID,1667515260,82,-0.9131,122.8766,78.66,0.47
523,Kavaratti,71,IN,1667515260,74,10.5669,72.642,81.82,6.42
524,Westport,0,US,1667515260,83,41.1415,-73.3579,61.09,4.61
525,Shihezi,87,CN,1667515147,66,44.3,86.0333,42.84,0.67
526,Nicoya,99,CR,1667515261,87,10.1483,-85.452,77.5,0.54
527,Lapua,100,FI,1667515262,90,62.9693,23.0088,45.34,8.34
528,Port Hueneme,0,US,1667515262,47,34.1478,-119.1951,68.86,23.02
529,Tambilil,76,PH,1667515262,82,5.9622,124.6697,81.61,2.59
530,Contai,0,IN,1667515263,65,21.7786,87.7536,68.04,5.99
531,Rocky Mountain House,83,CA,1667515199,63,52.3668,-114.9188,21.31,5.75
532,Sechura,19,PE,1667515263,64,-5.5569,-80.8222,69.3,16.6
533,Dinguiraye,99,GN,1667515264,46,11.3,-10.7167,72.45,3.04
534,Deputatsky,100,RU,1667515264,95,69.3,139.9,-4.88,2.39
535,Whitehorse,40,CA,1667515026,69,60.7161,-135.0538,34.11,4.61
536,Yangi Marg`ilon,100,UZ,1667515265,76,40.4272,71.7189,54.32,4.61
537,Gijang,19,KR,1667515265,45,35.2442,129.2139,47.93,5.46
538,Trincomalee,99,LK,1667515265,89,8.5711,81.2335,77.09,9.15
539,Denizli Province,52,TR,1667515266,45,37.8402,29.0698,58.26,1.28
540,Jiaojiang,100,CN,1667515266,82,28.6803,121.4428,63.0,8.14
541,Soyo,96,AO,1667515267,90,-6.1349,12.3689,76.48,5.01
542,Matara,93,LK,1667515267,90,5.9485,80.5353,75.45,6.82
543,Jodiya,0,IN,1667515267,47,22.6925,70.306,80.64,5.12
544,Otoka,82,BA,1667515268,83,44.96,16.1792,54.43,4.21
545,Moerai,4,PF,1667514990,74,-22.4333,-151.3333,71.87,23.85
546,São Félix do Xingu,87,BR,1667515268,72,-6.6447,-51.995,76.3,0.98
547,Balancán,100,MX,1667515269,96,17.8,-91.5333,72.19,6.15
548,Santa Cruz de La Palma,100,ES,1667515269,83,28.6835,-17.7642,71.74,8.05
549,Nerchinskiy Zavod,45,RU,1667515270,97,51.3088,119.61,0.45,2.48
550,Labuhan,95,ID,1667515270,85,-6.8844,112.2051,79.38,6.78
551,Aswān,0,EG,1667515270,34,24.0934,32.907,69.1,4.61
552,Port Hawkesbury,0,CA,1667515271,66,45.6169,-61.3485,45.99,5.99
553,Micheweni,9,TZ,1667515271,83,-4.9667,39.8333,75.87,6.29
554,Half Moon Bay,20,US,1667515272,49,37.4636,-122.4286,63.23,5.75
555,Impfondo,95,CG,1667515272,98,1.6381,18.0667,69.28,0.87
556,Poso,100,ID,1667515272,77,-1.3959,120.7524,79.7,3.83
557,Mogadishu,57,SO,1667515273,81,2.0371,45.3438,77.52,6.91
558,Ust-Kuyga,100,RU,1667515273,97,70.0167,135.6,8.15,3.29
559,Macapá,40,BR,1667515274,78,0.0389,-51.0664,82.38,5.75
560,Khandyga,95,RU,1667515274,100,62.6667,135.6,-18.47,2.75
561,Lerwick,96,GB,1667514998,71,60.1545,-1.1494,50.0,19.19
562,Yermakovskoye,100,RU,1667515275,70,53.2831,92.4003,29.62,0.83
563,Makakilo City,20,US,1667515111,58,21.3469,-158.0858,86.32,17.27
564,Makokou,99,GA,1667515275,98,0.5738,12.8642,68.85,0.69
565,Tekeli,62,KZ,1667515276,42,44.83,78.8239,41.45,8.01
566,Baykit,99,RU,1667515276,98,61.67,96.37,7.65,1.41
567,Oktyabr'skiy,42,RU,1667515276,97,54.4815,53.471,20.3,3.94
568,Pimentel,0,PE,1667515277,68,-6.8367,-79.9342,66.49,16.11
569,Abbeville,44,FR,1667515277,91,50.1,1.8333,50.25,14.32
570,Sioux Lookout,100,CA,1667515277,93,50.1001,-91.917,39.27,10.36
571,Manokwari,99,ID,1667515278,71,-0.8667,134.0833,82.11,3.98
572,Praia da Vitória,20,PT,1667515278,88,38.7333,-27.0667,68.25,14.85
573,Merauke,97,ID,1667515279,74,-8.4667,140.3333,82.49,5.86
574,Keflavik,0,IS,1667515279,87,64.0049,-22.5624,36.03,8.05
575,Awasa,72,ET,1667515279,69,7.05,38.4667,59.5,4.92
576,Shimoda,82,JP,1667515280,55,34.6667,138.95,66.11,21.18
577,Sucúa,75,EC,1667515280,73,-2.4667,-78.1667,70.54,6.91
578,Nueva Gerona,10,CU,1667515281,72,21.8833,-82.8,81.57,4.52
579,Te Anau,99,NZ,1667515281,83,-45.4167,167.7167,50.27,10.38
580,Pudozh,38,RU,1667515281,98,61.8099,36.5345,21.25,2.04
